stop_id,stop_code,stop_name,stop_desc,stop_lat,stop_lon,zone_id,stop_url
32,1102,Ronda de Ses Mines (1102),,39.02425,1.555819,1930,https://eivissa.tib.org/web/cie/parades/-/parada/1102
33,2,Policia Municipal (2),,38.978405,1.316333,1712,https://eivissa.tib.org/web/cie/parades/-/parada/2
34,1103,Ronda de Ses Mines (1103),,39.024174,1.555631,1947,https://eivissa.tib.org/web/cie/parades/-/parada/1103
35,3,ses Païsses (3),,38.976955,1.323258,1942,https://eivissa.tib.org/web/cie/parades/-/parada/3
36,4,Can Guillemó (4),,38.97481,1.332832,2161,https://eivissa.tib.org/web/cie/parades/-/parada/4
37,5,"s'Olivera, can Tomàs (5)",,38.973347,1.340463,1672,https://eivissa.tib.org/web/cie/parades/-/parada/5
38,1098,pont d'en Llàtzer (1098),,38.979935,1.467937,1970,https://eivissa.tib.org/web/cie/parades/-/parada/1098
39,6,"sa Casilla, Sant Antoni (6)",,38.97145,1.349374,2180,https://eivissa.tib.org/web/cie/parades/-/parada/6
40,1099,pont d'en Llàtzer (1099),,38.977436,1.465592,1989,https://eivissa.tib.org/web/cie/parades/-/parada/1099
41,7,Cooperativa Hostelera (7),,38.967655,1.367733,2011,https://eivissa.tib.org/web/cie/parades/-/parada/7
42,8,Can Begot (8),,38.965767,1.374881,1841,https://eivissa.tib.org/web/cie/parades/-/parada/8
43,9,Can Parentona (9),,38.96435,1.384445,2170,https://eivissa.tib.org/web/cie/parades/-/parada/9
44,10,Sant Rafel (10),,38.96166,1.39575,1650,https://eivissa.tib.org/web/cie/parades/-/parada/10
45,11,Privilege (11),,38.95734,1.402736,1659,https://eivissa.tib.org/web/cie/parades/-/parada/11
46,1088,Lava Park (1088),,38.98507,1.499619,1779,https://eivissa.tib.org/web/cie/parades/-/parada/1088
47,12,Can Pep Xico (12),,38.950394,1.407668,1864,https://eivissa.tib.org/web/cie/parades/-/parada/12
48,1089,Niu Blau (1089),,38.995285,1.55361,2017,https://eivissa.tib.org/web/cie/parades/-/parada/1089
49,13,Amnesia (13),,38.94817,1.408639,1777,https://eivissa.tib.org/web/cie/parades/-/parada/13
50,1090,Niu Blau (1090),,38.995247,1.553402,1584,https://eivissa.tib.org/web/cie/parades/-/parada/1090
51,14,Porcelanosa (14),,38.94351,1.411343,1761,https://eivissa.tib.org/web/cie/parades/-/parada/14
53,15,sa Coma (15),,38.934822,1.41652,1574,https://eivissa.tib.org/web/cie/parades/-/parada/15
54,17,IES sa Blanca Dona (17),,38.92081,1.425079,2066,https://eivissa.tib.org/web/cie/parades/-/parada/17
55,1116,Sant Llorenç (1116),,39.029655,1.477207,1637,https://eivissa.tib.org/web/cie/parades/-/parada/1116
56,16,Can Negre (16),,38.927116,1.421298,2091,https://eivissa.tib.org/web/cie/parades/-/parada/16
58,1113,sa Torre (1113),,38.984196,1.515455,2140,https://eivissa.tib.org/web/cie/parades/-/parada/1113
59,21,Recinte Firal (21),,38.918507,1.426722,1868,https://eivissa.tib.org/web/cie/parades/-/parada/21
60,1112,sa Torre (1112),,38.98415,1.515561,2162,https://eivissa.tib.org/web/cie/parades/-/parada/1112
62,1115,Sant Joan (1115),,39.077312,1.512538,1808,https://eivissa.tib.org/web/cie/parades/-/parada/1115
63,23,Can Negre (23),,38.927834,1.421123,2053,https://eivissa.tib.org/web/cie/parades/-/parada/23
65,22,IES sa Blanca Dona (22),,38.921825,1.424704,1913,https://eivissa.tib.org/web/cie/parades/-/parada/22
67,25,Porcelanosa (25),,38.944187,1.411381,2018,https://eivissa.tib.org/web/cie/parades/-/parada/25
69,24,sa Coma (24),,38.935013,1.416773,2150,https://eivissa.tib.org/web/cie/parades/-/parada/24
70,1111,sa Ferreria (1111),,39.059074,1.49414,1645,https://eivissa.tib.org/web/cie/parades/-/parada/1111
71,27,Bombers (27),,38.95209,1.407386,1918,https://eivissa.tib.org/web/cie/parades/-/parada/27
72,1110,sa Ferreria (1110),,39.059006,1.494186,1664,https://eivissa.tib.org/web/cie/parades/-/parada/1110
73,26,Amnesia (26),,38.947006,1.409773,1767,https://eivissa.tib.org/web/cie/parades/-/parada/26
74,1105,Aparcament des Gorg (1105),,38.917213,1.435894,1833,https://eivissa.tib.org/web/cie/parades/-/parada/1105
75,29,Sant Rafel (29),,38.96206,1.395331,1819,https://eivissa.tib.org/web/cie/parades/-/parada/29
76,1104,Suministros Ibiza (1104),,38.918087,1.438687,2169,https://eivissa.tib.org/web/cie/parades/-/parada/1104
77,28,Privilege (28),,38.957584,1.402911,1855,https://eivissa.tib.org/web/cie/parades/-/parada/28
78,1107,S'Hort Nou (1107),,38.979343,1.415279,1703,https://eivissa.tib.org/web/cie/parades/-/parada/1107
79,31,Can Begot (31),,38.96607,1.374977,1830,https://eivissa.tib.org/web/cie/parades/-/parada/31
80,1106,S'Hort Nou (1106),,38.97946,1.415412,1657,https://eivissa.tib.org/web/cie/parades/-/parada/1106
81,30,Can Parentona (30),,38.964695,1.384277,2157,https://eivissa.tib.org/web/cie/parades/-/parada/30
83,34,"s'Olivera, can Tomàs (34)",,38.97358,1.340127,2002,https://eivissa.tib.org/web/cie/parades/-/parada/34
85,35,Can Guillemó (35),,38.975452,1.331233,2131,https://eivissa.tib.org/web/cie/parades/-/parada/35
87,32,Cooperativa Hostelera (32),,38.967957,1.367665,1627,https://eivissa.tib.org/web/cie/parades/-/parada/32
88,33,"sa Casilla, Sant Antoni (33)",,38.97166,1.349121,1661,https://eivissa.tib.org/web/cie/parades/-/parada/33
90,38,Can Bonet (38),,38.97244,1.331688,2004,https://eivissa.tib.org/web/cie/parades/-/parada/38
91,39,Los Troncos (39),,38.972904,1.328599,1774,https://eivissa.tib.org/web/cie/parades/-/parada/39
93,36,ses Païsses (36),,38.977142,1.32313,2029,https://eivissa.tib.org/web/cie/parades/-/parada/36
95,37,Policia Municipal (37),,38.978554,1.316231,1857,https://eivissa.tib.org/web/cie/parades/-/parada/37
97,42,Cementeri - Caló des Moro (42),,38.986042,1.299297,1622,https://eivissa.tib.org/web/cie/parades/-/parada/42
99,43,IES Quartó de Portmany (43),,38.98696,1.307523,2151,https://eivissa.tib.org/web/cie/parades/-/parada/43
101,40,Can Guasch (40),,38.974762,1.324471,1697,https://eivissa.tib.org/web/cie/parades/-/parada/40
104,1122,Taller Marí (1122),,39.045113,1.491539,1788,https://eivissa.tib.org/web/cie/parades/-/parada/1122
106,1123,IES Xarc (1123),,38.988213,1.542213,1940,https://eivissa.tib.org/web/cie/parades/-/parada/1123
107,44,Can Coix (44),,38.994114,1.308786,1716,https://eivissa.tib.org/web/cie/parades/-/parada/44
108,1121,Taller Marí (1121),,39.045116,1.491611,1734,https://eivissa.tib.org/web/cie/parades/-/parada/1121
109,45,IES Quartó de Portmany (45),,38.987064,1.307416,1897,https://eivissa.tib.org/web/cie/parades/-/parada/45
110,1150,Càmping es Canar (1150),,39.004223,1.573327,31,https://eivissa.tib.org/web/cie/parades/-/parada/1150
111,1149,Can Marines (1149),,39.00141,1.565035,1787,https://eivissa.tib.org/web/cie/parades/-/parada/1149
112,49,Los Troncos (49),,38.972843,1.328583,1839,https://eivissa.tib.org/web/cie/parades/-/parada/49
114,48,Can Guasch (48),,38.974754,1.324402,1875,https://eivissa.tib.org/web/cie/parades/-/parada/48
125,1032,Can Coroner (1032),,39.050884,1.490819,2052,https://eivissa.tib.org/web/cie/parades/-/parada/1032
126,1033,Can Coroner (1033),,39.05259,1.491772,2111,https://eivissa.tib.org/web/cie/parades/-/parada/1033
127,1037,Can Creu (1037),,38.97425,1.463527,1945,https://eivissa.tib.org/web/cie/parades/-/parada/1037
128,1038,Can Durban (1038),,38.97675,1.470958,1921,https://eivissa.tib.org/web/cie/parades/-/parada/1038
129,1039,Can Durban (1039),,38.976795,1.470773,1939,https://eivissa.tib.org/web/cie/parades/-/parada/1039
130,1024,Ca n'Albarca (1024),,38.97679,1.453945,1735,https://eivissa.tib.org/web/cie/parades/-/parada/1024
131,1025,Ca n'Albarca (1025),,38.976738,1.453985,1751,https://eivissa.tib.org/web/cie/parades/-/parada/1025
132,1028,Can Bernat (1028),,38.97679,1.436101,1971,https://eivissa.tib.org/web/cie/parades/-/parada/1028
133,1029,Can Bernat (1029),,38.976715,1.43598,1991,https://eivissa.tib.org/web/cie/parades/-/parada/1029
134,1030,Can Castelló (1030),,38.95336,1.44516,2116,https://eivissa.tib.org/web/cie/parades/-/parada/1030
135,1031,Can Castelló (1031),,38.952988,1.445018,2174,https://eivissa.tib.org/web/cie/parades/-/parada/1031
136,1051,Can Mossonet (1051),,38.995453,1.487614,2087,https://eivissa.tib.org/web/cie/parades/-/parada/1051
137,1050,Can Mossonet (1050),,38.995388,1.487646,2102,https://eivissa.tib.org/web/cie/parades/-/parada/1050
138,1053,Can Nadal (1053),,38.98471,1.521538,1789,https://eivissa.tib.org/web/cie/parades/-/parada/1053
139,1052,Can Nadal (1052),,38.984344,1.524157,1763,https://eivissa.tib.org/web/cie/parades/-/parada/1052
140,1055,Can Poll (1055),,39.00575,1.547522,1957,https://eivissa.tib.org/web/cie/parades/-/parada/1055
141,1054,Can Poll (1054),,39.00575,1.547603,2021,https://eivissa.tib.org/web/cie/parades/-/parada/1054
142,1041,Can Fluixà (1041),,39.018368,1.487324,2182,https://eivissa.tib.org/web/cie/parades/-/parada/1041
143,1040,Can Fluixà (1040),,39.018337,1.48741,1894,https://eivissa.tib.org/web/cie/parades/-/parada/1040
144,1047,Can Marçà (1047),,38.983818,1.506585,1614,https://eivissa.tib.org/web/cie/parades/-/parada/1047
145,1046,Can Marçà (1046),,38.983734,1.506482,1639,https://eivissa.tib.org/web/cie/parades/-/parada/1046
148,101,Estació de Sant Antoni (101),,38.98139,1.306801,1633,https://eivissa.tib.org/web/cie/parades/-/parada/101
149,1071,encreuament Portinatx (1071),,39.075607,1.505588,1973,https://eivissa.tib.org/web/cie/parades/-/parada/1071
150,1069,Sa Residència (1069),,38.930214,1.442928,2089,https://eivissa.tib.org/web/cie/parades/-/parada/1069
151,1058,Can Sanç (1058),,39.010483,1.487898,1852,https://eivissa.tib.org/web/cie/parades/-/parada/1058
152,110,Edén (110),,38.966576,1.310294,2098,https://eivissa.tib.org/web/cie/parades/-/parada/110
153,1059,Can Sanç (1059),,39.010536,1.487817,1876,https://eivissa.tib.org/web/cie/parades/-/parada/1059
154,111,Racó des Sol (111),,38.970345,1.30733,1886,https://eivissa.tib.org/web/cie/parades/-/parada/111
155,108,H. Arenal (108),,38.974606,1.308964,2178,https://eivissa.tib.org/web/cie/parades/-/parada/108
156,109,H. Puchet (109),,38.97062,1.309799,2020,https://eivissa.tib.org/web/cie/parades/-/parada/109
157,1062,Can Tití (1062),,38.941525,1.444475,1870,https://eivissa.tib.org/web/cie/parades/-/parada/1062
159,1063,Can Tití (1063),,38.9418,1.444389,1849,https://eivissa.tib.org/web/cie/parades/-/parada/1063
161,1060,Can Savi (1060),,39.03711,1.491544,1720,https://eivissa.tib.org/web/cie/parades/-/parada/1060
163,1061,Can Savi (1061),,39.037186,1.49148,1785,https://eivissa.tib.org/web/cie/parades/-/parada/1061
167,1082,Can Fita (1082),,38.92254,1.44033,1912,https://eivissa.tib.org/web/cie/parades/-/parada/1082
168,118,H. San Diego (118),,38.970535,1.279899,1867,https://eivissa.tib.org/web/cie/parades/-/parada/118
169,1081,es Pins (1081),,39.026024,1.487161,2146,https://eivissa.tib.org/web/cie/parades/-/parada/1081
170,117,H. Riviera (117),,38.970627,1.285546,1693,https://eivissa.tib.org/web/cie/parades/-/parada/117
171,1080,es Pins (1080),,39.02638,1.487419,2128,https://eivissa.tib.org/web/cie/parades/-/parada/1080
172,116,H. Pinet (116),,38.9693,1.291583,2164,https://eivissa.tib.org/web/cie/parades/-/parada/116
173,1087,Lava Park (1087),,38.98487,1.499911,1997,https://eivissa.tib.org/web/cie/parades/-/parada/1087
174,115,H. Nautilus (115),,38.9674,1.295618,2144,https://eivissa.tib.org/web/cie/parades/-/parada/115
175,114,H. Mar Amantis (114),,38.967407,1.297326,2034,https://eivissa.tib.org/web/cie/parades/-/parada/114
176,113,H. Bergantín (113),,38.967896,1.301751,2113,https://eivissa.tib.org/web/cie/parades/-/parada/113
178,112,es Pouet (112),,38.970318,1.304389,2035,https://eivissa.tib.org/web/cie/parades/-/parada/112
179,127,sa Plana - Comte (127),,38.950497,1.256835,1879,https://eivissa.tib.org/web/cie/parades/-/parada/127
180,1074,encreuament col·legi (1074),,39.031094,1.560242,2013,https://eivissa.tib.org/web/cie/parades/-/parada/1074
181,126,es Cucó (126),,38.955643,1.271769,76,https://eivissa.tib.org/web/cie/parades/-/parada/126
182,1073,encreuament col·legi (1073),,39.030815,1.560036,1915,https://eivissa.tib.org/web/cie/parades/-/parada/1073
184,1072,encreuament Portinatx (1072),,39.075817,1.504349,2027,https://eivissa.tib.org/web/cie/parades/-/parada/1072
185,124,Port des Torrent (124),,38.963776,1.2691,76,https://eivissa.tib.org/web/cie/parades/-/parada/124
186,123,Cala de Bou (123),,38.965355,1.276851,1765,https://eivissa.tib.org/web/cie/parades/-/parada/123
187,122,"Av. Sant Agustí, 150 (122)",,38.966568,1.280466,1967,https://eivissa.tib.org/web/cie/parades/-/parada/122
188,1077,es Canar (1077),,39.001225,1.576994,31,https://eivissa.tib.org/web/cie/parades/-/parada/1077
192,139,Sant Agustí (139),,38.939392,1.290037,1904,https://eivissa.tib.org/web/cie/parades/-/parada/139
194,141,Can Verger (141),,38.922653,1.286059,1854,https://eivissa.tib.org/web/cie/parades/-/parada/141
195,140,Can Reialet (140),,38.92844,1.287288,1872,https://eivissa.tib.org/web/cie/parades/-/parada/140
197,142,Sant Josep (142),,38.921715,1.293131,1669,https://eivissa.tib.org/web/cie/parades/-/parada/142
199,128,Bar Stop (128),,38.949802,1.251615,1880,https://eivissa.tib.org/web/cie/parades/-/parada/128
202,133,H. Cala Tarida (133),,38.942497,1.235333,61,https://eivissa.tib.org/web/cie/parades/-/parada/133
203,132,Cala Corral (132),,38.94121,1.243294,61,https://eivissa.tib.org/web/cie/parades/-/parada/132
206,152,Can Verdera (152),,38.896175,1.369659,1877,https://eivissa.tib.org/web/cie/parades/-/parada/152
207,153,Can Manyà (153),,38.89823,1.379881,2086,https://eivissa.tib.org/web/cie/parades/-/parada/153
208,154,Can Bellotera (154),,38.900074,1.389307,2055,https://eivissa.tib.org/web/cie/parades/-/parada/154
209,155,Can Cardonet (155),,38.901318,1.395515,1773,https://eivissa.tib.org/web/cie/parades/-/parada/155
210,156,Can Cendón (156),,38.90266,1.401902,2121,https://eivissa.tib.org/web/cie/parades/-/parada/156
211,157,Cas Tabaquet (157),,38.903484,1.406037,1988,https://eivissa.tib.org/web/cie/parades/-/parada/157
212,158,Renault (158),,38.904144,1.409324,1760,https://eivissa.tib.org/web/cie/parades/-/parada/158
213,159,SEAT (159),,38.904686,1.411732,1798,https://eivissa.tib.org/web/cie/parades/-/parada/159
215,145,Can Rempuixa (145),,38.90933,1.316142,2043,https://eivissa.tib.org/web/cie/parades/-/parada/145
216,146,Can Puvil (146),,38.90052,1.323365,1677,https://eivissa.tib.org/web/cie/parades/-/parada/146
217,147,sa Cova Santa (147),,38.897884,1.331341,1992,https://eivissa.tib.org/web/cie/parades/-/parada/147
218,148,s'Aljub (148),,38.893677,1.339659,1725,https://eivissa.tib.org/web/cie/parades/-/parada/148
219,149,"sa Casilla, Sant Antoni (149)",,38.89222,1.347337,1810,https://eivissa.tib.org/web/cie/parades/-/parada/149
220,150,Ca n'Andreu (150),,38.893272,1.35503,2171,https://eivissa.tib.org/web/cie/parades/-/parada/150
221,151,es Mig Terç (151),,38.8952,1.36469,1721,https://eivissa.tib.org/web/cie/parades/-/parada/151
222,171,La Ponderosa (171),,38.879787,1.371303,2136,https://eivissa.tib.org/web/cie/parades/-/parada/171
223,170,Citubo (170),,38.881695,1.375522,1651,https://eivissa.tib.org/web/cie/parades/-/parada/170
224,169,Grupauto (169),,38.882275,1.379337,1907,https://eivissa.tib.org/web/cie/parades/-/parada/169
225,168,Moto Luis (168),,38.883846,1.388606,1671,https://eivissa.tib.org/web/cie/parades/-/parada/168
226,175,Sant Francesc (175),,38.86848,1.389145,1937,https://eivissa.tib.org/web/cie/parades/-/parada/175
227,174,Isla Blanca (174),,38.87617,1.391462,1756,https://eivissa.tib.org/web/cie/parades/-/parada/174
228,173,Aeroport (173),,38.87708,1.368941,1668,https://eivissa.tib.org/web/cie/parades/-/parada/173
229,163,Vara de Rey (163),,38.908634,1.431703,12340,https://eivissa.tib.org/web/cie/parades/-/parada/163
230,162,Consell Insular d'Eivissa (162),,38.90764,1.426691,12340,https://eivissa.tib.org/web/cie/parades/-/parada/162
231,161,ses Figueretes (161),,38.906628,1.421776,12340,https://eivissa.tib.org/web/cie/parades/-/parada/161
232,160,Bar Astro (160),,38.90549,1.415447,1764,https://eivissa.tib.org/web/cie/parades/-/parada/160
233,167,ses Campanes (167),,38.885582,1.391524,2139,https://eivissa.tib.org/web/cie/parades/-/parada/167
234,166,Sant Jordi (166),,38.891373,1.397044,1729,https://eivissa.tib.org/web/cie/parades/-/parada/166
235,165,encreuament platja d'en Bossa (165),,38.894432,1.399676,1959,https://eivissa.tib.org/web/cie/parades/-/parada/165
236,164,IES Algarb (164),,38.89918,1.397567,2019,https://eivissa.tib.org/web/cie/parades/-/parada/164
237,186,el Vivero de Jesus (186),,38.927097,1.443756,2175,https://eivissa.tib.org/web/cie/parades/-/parada/186
238,187,Jesús (187),,38.93118,1.44995,1984,https://eivissa.tib.org/web/cie/parades/-/parada/187
241,190,ses Torres Baixes (190),,38.920975,1.457725,1853,https://eivissa.tib.org/web/cie/parades/-/parada/190
242,191,H. Victoria (191),,38.918938,1.462009,2008,https://eivissa.tib.org/web/cie/parades/-/parada/191
243,188,Can Rimbau (188),,38.92826,1.452671,1665,https://eivissa.tib.org/web/cie/parades/-/parada/188
244,189,ses Pitreres (189),,38.924595,1.454159,2050,https://eivissa.tib.org/web/cie/parades/-/parada/189
245,178,ses Salines (178),,38.84342,1.384976,1621,https://eivissa.tib.org/web/cie/parades/-/parada/178
247,176,"sa Casilla, ses Salines (176)",,38.862144,1.388017,1888,https://eivissa.tib.org/web/cie/parades/-/parada/176
248,177,Can Teixidor (177),,38.854237,1.387864,1922,https://eivissa.tib.org/web/cie/parades/-/parada/177
249,182,Marí Mayans (182),,38.92895,1.429817,70,https://eivissa.tib.org/web/cie/parades/-/parada/182
250,183,Ciudad Jardín (183),,38.92854,1.432639,70,https://eivissa.tib.org/web/cie/parades/-/parada/183
251,180,es Raspallar (180),,38.923695,1.429593,1817,https://eivissa.tib.org/web/cie/parades/-/parada/180
252,181,Fusteria (181),,38.92704,1.42989,70,https://eivissa.tib.org/web/cie/parades/-/parada/181
253,1153,Can Marines (1153),,39.001472,1.564974,1610,https://eivissa.tib.org/web/cie/parades/-/parada/1153
254,205,H. Goleta (205),,38.898106,1.415695,2133,https://eivissa.tib.org/web/cie/parades/-/parada/205
255,1152,Càmping es Canar (1152),,39.004242,1.573432,31,https://eivissa.tib.org/web/cie/parades/-/parada/1152
256,204,H. Mare Nostrum (204),,38.89637,1.412644,1951,https://eivissa.tib.org/web/cie/parades/-/parada/204
257,1155,pont des Negres (1155),,39.090565,1.502781,1780,https://eivissa.tib.org/web/cie/parades/-/parada/1155
259,1154,sa Vilda Marge (1154),,39.082867,1.495839,1580,https://eivissa.tib.org/web/cie/parades/-/parada/1154
260,206,Malacosta (206),,38.900246,1.417917,2166,https://eivissa.tib.org/web/cie/parades/-/parada/206
261,1157,Cala des Xuclar (1157),,39.100883,1.511047,1662,https://eivissa.tib.org/web/cie/parades/-/parada/1157
262,201,Bora Bora - es Daus (201),,38.88775,1.40643,1792,https://eivissa.tib.org/web/cie/parades/-/parada/201
263,1156,Xarraca (1156),,39.096107,1.498366,1850,https://eivissa.tib.org/web/cie/parades/-/parada/1156
264,200,Hï Ibiza (200),,38.885082,1.403969,1812,https://eivissa.tib.org/web/cie/parades/-/parada/200
265,1159,encreuament hotels (1159),,39.106262,1.519496,1869,https://eivissa.tib.org/web/cie/parades/-/parada/1159
266,203,H. Algarb (203),,38.89334,1.409542,1935,https://eivissa.tib.org/web/cie/parades/-/parada/203
267,1158,Càmping (1158),,39.104126,1.512286,1742,https://eivissa.tib.org/web/cie/parades/-/parada/1158
268,202,H. Garbí (202),,38.890865,1.40713,1682,https://eivissa.tib.org/web/cie/parades/-/parada/202
269,1161,encreuament hotels (1161),,39.10654,1.52058,1822,https://eivissa.tib.org/web/cie/parades/-/parada/1161
270,1160,Portinatx (1160),,39.110664,1.518455,1758,https://eivissa.tib.org/web/cie/parades/-/parada/1160
271,196,H. Playa Real (196),,38.91853,1.456592,2159,https://eivissa.tib.org/web/cie/parades/-/parada/196
272,1163,Cala des Xuclar (1163),,39.100967,1.510918,1732,https://eivissa.tib.org/web/cie/parades/-/parada/1163
273,199,Ushuaïa & Hard Rock Hotel (H. Bahamas) (199),,38.882423,1.402135,1820,https://eivissa.tib.org/web/cie/parades/-/parada/199
274,1162,Càmping (1162),,39.1038,1.51132,2167,https://eivissa.tib.org/web/cie/parades/-/parada/1162
275,198,Grand Palladium Palace (198),,38.877956,1.401273,1615,https://eivissa.tib.org/web/cie/parades/-/parada/198
276,1165,pont des Negres (1165),,39.091583,1.501518,2015,https://eivissa.tib.org/web/cie/parades/-/parada/1165
277,193,Cap Martinet (193),,38.914165,1.469471,1882,https://eivissa.tib.org/web/cie/parades/-/parada/193
278,1164,Xarraca (1164),,39.097256,1.498511,1667,https://eivissa.tib.org/web/cie/parades/-/parada/1164
279,192,Aqualandia (192),,38.917236,1.469168,2119,https://eivissa.tib.org/web/cie/parades/-/parada/192
282,1166,sa Vilda Marge (1166),,39.08343,1.496367,1605,https://eivissa.tib.org/web/cie/parades/-/parada/1166
285,220,Can Porxo (220),,38.949085,1.488471,2054,https://eivissa.tib.org/web/cie/parades/-/parada/220
287,221,Roca Llisa (221),,38.943993,1.489071,1927,https://eivissa.tib.org/web/cie/parades/-/parada/221
289,222,can Fornet (222),,38.94317,1.462485,2101,https://eivissa.tib.org/web/cie/parades/-/parada/222
291,223,es Pi (223),,38.9404,1.457687,2107,https://eivissa.tib.org/web/cie/parades/-/parada/223
293,216,Cala Llonga (216),,38.952755,1.517778,1727,https://eivissa.tib.org/web/cie/parades/-/parada/216
295,217,Can Clavos (217),,38.956974,1.445913,1684,https://eivissa.tib.org/web/cie/parades/-/parada/217
297,218,sa Gravada (218),,38.955612,1.502747,1776,https://eivissa.tib.org/web/cie/parades/-/parada/218
299,219,pont de sa Vinya (219),,38.95193,1.493448,2156,https://eivissa.tib.org/web/cie/parades/-/parada/219
301,212,Can Bassetes (212),,38.97754,1.514671,1612,https://eivissa.tib.org/web/cie/parades/-/parada/212
303,213,urb. Valverde (213),,38.96875,1.512589,2108,https://eivissa.tib.org/web/cie/parades/-/parada/213
304,214,encreuament Cala Llonga (214),,38.957348,1.511069,1887,https://eivissa.tib.org/web/cie/parades/-/parada/214
305,215,Bar Madison (215),,38.955173,1.517597,2069,https://eivissa.tib.org/web/cie/parades/-/parada/215
307,208,"C. del País Basc, 15 (208)",,38.9057,1.423461,2012,https://eivissa.tib.org/web/cie/parades/-/parada/208
309,209,Santa Eulària (209),,38.985985,1.533527,1750,https://eivissa.tib.org/web/cie/parades/-/parada/209
311,210,urb. Siesta (210),,38.981327,1.523369,1950,https://eivissa.tib.org/web/cie/parades/-/parada/210
313,211,Bar sa Font (211),,38.97905,1.517779,2064,https://eivissa.tib.org/web/cie/parades/-/parada/211
315,239,Bassa Roja (239),,38.98381,1.370148,1745,https://eivissa.tib.org/web/cie/parades/-/parada/239
317,238,Can Tixedo (238),,38.993572,1.361771,1866,https://eivissa.tib.org/web/cie/parades/-/parada/238
319,237,Can Casa Llarga (237),,39.0131,1.343349,2072,https://eivissa.tib.org/web/cie/parades/-/parada/237
321,236,Can Ferre (236),,39.030197,1.334814,1674,https://eivissa.tib.org/web/cie/parades/-/parada/236
322,235,Santa Agnès (235),,39.03818,1.336065,1702,https://eivissa.tib.org/web/cie/parades/-/parada/235
335,225,Cala Vedella (225),,38.914066,1.225201,69,https://eivissa.tib.org/web/cie/parades/-/parada/225
336,224,Ca Nostra (224),,38.93732,1.45385,1799,https://eivissa.tib.org/web/cie/parades/-/parada/224
337,254,Club de Campo (254),,38.90262,1.388518,1592,https://eivissa.tib.org/web/cie/parades/-/parada/254
338,255,Bar sa Carroca (255),,38.90391,1.392114,1885,https://eivissa.tib.org/web/cie/parades/-/parada/255
339,252,Can Noguera (252),,38.899876,1.382673,1660,https://eivissa.tib.org/web/cie/parades/-/parada/252
340,253,es Torrent (253),,38.901684,1.385615,1596,https://eivissa.tib.org/web/cie/parades/-/parada/253
341,250,Sa Compra (250),,38.89336,1.390172,1701,https://eivissa.tib.org/web/cie/parades/-/parada/250
342,251,Can Guerxo (251),,38.895153,1.386514,1860,https://eivissa.tib.org/web/cie/parades/-/parada/251
344,249,"Sant Jordi, Plaça de l'Església (249)",,38.891197,1.394717,1724,https://eivissa.tib.org/web/cie/parades/-/parada/249
345,246,Sant Miquel (246),,39.055256,1.437358,1629,https://eivissa.tib.org/web/cie/parades/-/parada/246
346,244,Can Mariano de sa Cova (244),,39.03243,1.431222,2163,https://eivissa.tib.org/web/cie/parades/-/parada/244
347,242,Cuatre Cantons (242),,38.963634,1.396487,1859,https://eivissa.tib.org/web/cie/parades/-/parada/242
348,243,s'Hort Nou 1 (243),,38.978806,1.414952,2049,https://eivissa.tib.org/web/cie/parades/-/parada/243
349,241,Can Muson (241),,38.972572,1.387372,1625,https://eivissa.tib.org/web/cie/parades/-/parada/241
350,275,Auditori Cas Serres (275),,38.90153,1.411052,1955,https://eivissa.tib.org/web/cie/parades/-/parada/275
351,274,CEIP Cas Serres (274),,38.903446,1.409972,1823,https://eivissa.tib.org/web/cie/parades/-/parada/274
352,273,urb. Vista Alegre (273),,38.89334,1.282755,1826,https://eivissa.tib.org/web/cie/parades/-/parada/273
353,272,H. Tarida Playa (272),,38.93771,1.238507,61,https://eivissa.tib.org/web/cie/parades/-/parada/272
355,278,Escoleta Can Cantó (278),,38.907467,1.411524,2141,https://eivissa.tib.org/web/cie/parades/-/parada/278
356,277,Església de San Pablo (277),,38.90611,1.411751,1608,https://eivissa.tib.org/web/cie/parades/-/parada/277
357,276,AV San Pablo (C. des Jondal) (276),,38.908688,1.414458,1963,https://eivissa.tib.org/web/cie/parades/-/parada/276
362,287,Ajuntament (287),,38.907253,1.437536,12371,https://eivissa.tib.org/web/cie/parades/-/parada/287
363,285,Museu d'Art Contemporani (285),,38.908623,1.435916,12371,https://eivissa.tib.org/web/cie/parades/-/parada/285
365,258,Can Cifre (258),,38.904705,1.402022,1710,https://eivissa.tib.org/web/cie/parades/-/parada/258
366,259,Can Fita (259),,38.90944,1.402195,1889,https://eivissa.tib.org/web/cie/parades/-/parada/259
367,256,Ca na Perica (256),,38.904594,1.395533,2051,https://eivissa.tib.org/web/cie/parades/-/parada/256
368,257,"Riu Minyo, 33 (257)",,38.90484,1.398625,1646,https://eivissa.tib.org/web/cie/parades/-/parada/257
369,262,pou de cas Mut (262),,38.91035,1.407703,1998,https://eivissa.tib.org/web/cie/parades/-/parada/262
370,263,CS can Misses (263),,38.916035,1.417456,12340,https://eivissa.tib.org/web/cie/parades/-/parada/263
371,260,Bar Isidro (260),,38.911114,1.403428,1770,https://eivissa.tib.org/web/cie/parades/-/parada/260
372,261,Can Pereira (261),,38.911522,1.406439,2030,https://eivissa.tib.org/web/cie/parades/-/parada/261
373,266,es Cubells (266),,38.881626,1.2719,1962,https://eivissa.tib.org/web/cie/parades/-/parada/266
376,265,CS es Viver (265),,38.90471,1.416355,2071,https://eivissa.tib.org/web/cie/parades/-/parada/265
377,270,Piscines Can Misses (270),,38.913754,1.417159,1666,https://eivissa.tib.org/web/cie/parades/-/parada/270
378,271,s'Espartar (271),,38.931446,1.258911,1837,https://eivissa.tib.org/web/cie/parades/-/parada/271
379,268,Talamanca (268),,38.91402,1.44945,1861,https://eivissa.tib.org/web/cie/parades/-/parada/268
380,269,Mc Donald's (269),,38.905636,1.419928,1623,https://eivissa.tib.org/web/cie/parades/-/parada/269
383,288,Dalt Vila (288),,38.907616,1.435646,12371,https://eivissa.tib.org/web/cie/parades/-/parada/288
389,294,Ronda ses Paisses (294),,38.96837,1.310362,2135,https://eivissa.tib.org/web/cie/parades/-/parada/294
391,297,Ibiza Gran Hotel (297),,38.918003,1.442685,1838,https://eivissa.tib.org/web/cie/parades/-/parada/297
393,299,C. de Montblanc (299),,38.892254,1.3956,1585,https://eivissa.tib.org/web/cie/parades/-/parada/299
395,301,Can Sord (301),,38.896824,1.391722,1602,https://eivissa.tib.org/web/cie/parades/-/parada/301
401,5135,Es Caliu (5135),,38.992958,1.486034,1692,https://eivissa.tib.org/web/cie/parades/-/parada/5135
402,5134,Can Reiet (5134),,38.986053,1.478264,2068,https://eivissa.tib.org/web/cie/parades/-/parada/5134
404,5146,ses Arcades (5146),,39.067127,1.494579,1620,https://eivissa.tib.org/web/cie/parades/-/parada/5146
405,410,Edén (410),,38.96638,1.310381,1746,https://eivissa.tib.org/web/cie/parades/-/parada/410
406,411,Racó des Sol (411),,38.970295,1.307319,1960,https://eivissa.tib.org/web/cie/parades/-/parada/411
407,408,H. Arenal (408),,38.97435,1.309099,2016,https://eivissa.tib.org/web/cie/parades/-/parada/408
408,409,H. Puchet (409),,38.970837,1.309805,1910,https://eivissa.tib.org/web/cie/parades/-/parada/409
409,412,es Pouet (412),,38.970173,1.304258,1999,https://eivissa.tib.org/web/cie/parades/-/parada/412
410,413,H. Bergantín (413),,38.967697,1.301729,1759,https://eivissa.tib.org/web/cie/parades/-/parada/413
417,440,Can Reialet (440),,38.928577,1.287414,1753,https://eivissa.tib.org/web/cie/parades/-/parada/440
418,441,Can Verger (441),,38.9227,1.286147,1815,https://eivissa.tib.org/web/cie/parades/-/parada/441
419,442,Sant Josep (442),,38.921764,1.292535,2124,https://eivissa.tib.org/web/cie/parades/-/parada/442
422,445,Can Rempuixa (445),,38.911163,1.315885,1856,https://eivissa.tib.org/web/cie/parades/-/parada/445
423,446,Can Puvil (446),,38.900852,1.321794,1598,https://eivissa.tib.org/web/cie/parades/-/parada/446
424,447,sa Cova Santa (447),,38.8979,1.33163,1974,https://eivissa.tib.org/web/cie/parades/-/parada/447
425,432,Cala Corral (432),,38.941113,1.243253,61,https://eivissa.tib.org/web/cie/parades/-/parada/432
430,439,Sant Agustí (439),,38.939632,1.290182,2191,https://eivissa.tib.org/web/cie/parades/-/parada/439
431,424,Port des Torrent (424),,38.96387,1.269369,76,https://eivissa.tib.org/web/cie/parades/-/parada/424
432,427,sa Plana - Comte (427),,38.950455,1.256983,1658,https://eivissa.tib.org/web/cie/parades/-/parada/427
435,428,Bar Stop (428),,38.949802,1.25188,2126,https://eivissa.tib.org/web/cie/parades/-/parada/428
439,423,Cala de Bou (423),,38.965378,1.277131,1802,https://eivissa.tib.org/web/cie/parades/-/parada/423
440,422,H. San Diego (422),,38.966484,1.28046,1737,https://eivissa.tib.org/web/cie/parades/-/parada/422
442,476,"sa Casilla, ses Salines (476)",,38.862255,1.388197,1844,https://eivissa.tib.org/web/cie/parades/-/parada/476
443,477,Can Teixidor (477),,38.85434,1.387917,1896,https://eivissa.tib.org/web/cie/parades/-/parada/477
444,474,Isla Blanca (474),,38.87614,1.391576,1794,https://eivissa.tib.org/web/cie/parades/-/parada/474
445,475,Sant Francesc (475),,38.86841,1.389325,1952,https://eivissa.tib.org/web/cie/parades/-/parada/475
446,470,Citubo (470),,38.881573,1.375606,1643,https://eivissa.tib.org/web/cie/parades/-/parada/470
447,471,La Ponderosa (471),,38.87982,1.371712,2148,https://eivissa.tib.org/web/cie/parades/-/parada/471
448,468,Can Fornís (468),,38.88298,1.387642,2083,https://eivissa.tib.org/web/cie/parades/-/parada/468
449,469,Autos Marí (469),,38.882175,1.378882,1775,https://eivissa.tib.org/web/cie/parades/-/parada/469
450,466,Sant Jordi (466),,38.89027,1.396573,1898,https://eivissa.tib.org/web/cie/parades/-/parada/466
451,467,Maripol Royal (467),,38.885387,1.391892,2094,https://eivissa.tib.org/web/cie/parades/-/parada/467
452,464,IES Algarb (464),,38.89898,1.397272,1892,https://eivissa.tib.org/web/cie/parades/-/parada/464
453,465,encreuament platja d'en Bossa (465),,38.89443,1.399825,2132,https://eivissa.tib.org/web/cie/parades/-/parada/465
454,460,Bar Astro (460),,38.905453,1.415917,2097,https://eivissa.tib.org/web/cie/parades/-/parada/460
455,459,SEAT (459),,38.904644,1.411879,2075,https://eivissa.tib.org/web/cie/parades/-/parada/459
456,458,Renault (458),,38.904076,1.409274,1728,https://eivissa.tib.org/web/cie/parades/-/parada/458
457,457,Cas Tabaquet (457),,38.90355,1.405991,1906,https://eivissa.tib.org/web/cie/parades/-/parada/457
458,456,Can Cendón (456),,38.902756,1.402,1969,https://eivissa.tib.org/web/cie/parades/-/parada/456
459,455,Can Cardonet (455),,38.90139,1.395231,2082,https://eivissa.tib.org/web/cie/parades/-/parada/455
460,454,Can Bellotera (454),,38.900154,1.389335,2001,https://eivissa.tib.org/web/cie/parades/-/parada/454
461,453,Can Manyà (453),,38.89828,1.379723,2000,https://eivissa.tib.org/web/cie/parades/-/parada/453
462,452,Can Verdera (452),,38.89632,1.369864,1893,https://eivissa.tib.org/web/cie/parades/-/parada/452
463,451,es Mig Terç (451),,38.895367,1.36508,1711,https://eivissa.tib.org/web/cie/parades/-/parada/451
464,450,Ca n'Andreu (450),,38.893414,1.355108,1613,https://eivissa.tib.org/web/cie/parades/-/parada/450
465,449,"sa Casilla, Sant Antoni (449)",,38.892307,1.347584,1641,https://eivissa.tib.org/web/cie/parades/-/parada/449
466,448,s'Aljub (448),,38.893837,1.339392,1824,https://eivissa.tib.org/web/cie/parades/-/parada/448
467,510,urb. Siesta (510),,38.981354,1.52314,1675,https://eivissa.tib.org/web/cie/parades/-/parada/510
468,511,Bar sa Font (511),,38.97905,1.517513,1816,https://eivissa.tib.org/web/cie/parades/-/parada/511
469,504,H. Mare Nostrum (504),,38.89653,1.413047,1593,https://eivissa.tib.org/web/cie/parades/-/parada/504
470,505,H. Goleta (505),,38.898193,1.415997,2061,https://eivissa.tib.org/web/cie/parades/-/parada/505
471,506,Malacosta (506),,38.90049,1.418173,1846,https://eivissa.tib.org/web/cie/parades/-/parada/506
472,507,es Viver (507),,38.903435,1.419561,1981,https://eivissa.tib.org/web/cie/parades/-/parada/507
473,500,Hï Ibiza (500),,38.885036,1.404048,1899,https://eivissa.tib.org/web/cie/parades/-/parada/500
474,501,Bora Bora - es Daus (501),,38.88726,1.406315,2134,https://eivissa.tib.org/web/cie/parades/-/parada/501
475,502,H. Garbí (502),,38.891,1.407426,1709,https://eivissa.tib.org/web/cie/parades/-/parada/502
476,503,H. Algarb (503),,38.892895,1.409299,2114,https://eivissa.tib.org/web/cie/parades/-/parada/503
477,496,H. Playa Real (496),,38.91894,1.456918,1578,https://eivissa.tib.org/web/cie/parades/-/parada/496
478,497,CS Vila (497),,38.91752,1.445951,2084,https://eivissa.tib.org/web/cie/parades/-/parada/497
479,499,Ushuaïa & Hard Rock Hotel (H. Bahamas) (499),,38.882286,1.402246,2100,https://eivissa.tib.org/web/cie/parades/-/parada/499
480,492,Aqualandia (492),,38.917465,1.469114,1733,https://eivissa.tib.org/web/cie/parades/-/parada/492
481,495,Club Nautico (495),,38.91354,1.4352189,12340,https://eivissa.tib.org/web/cie/parades/-/parada/495
482,494,Port (494),,38.911358,1.434531,12340,https://eivissa.tib.org/web/cie/parades/-/parada/494
483,489,ses Pitreres (489),,38.924526,1.454305,1652,https://eivissa.tib.org/web/cie/parades/-/parada/489
484,488,Can Rimbau (488),,38.928432,1.452671,1769,https://eivissa.tib.org/web/cie/parades/-/parada/488
485,491,H. Victoria (491),,38.919598,1.461078,1617,https://eivissa.tib.org/web/cie/parades/-/parada/491
486,490,ses Torres Baixes (490),,38.921,1.457865,2190,https://eivissa.tib.org/web/cie/parades/-/parada/490
489,487,Jesús (487),,38.931213,1.450013,1744,https://eivissa.tib.org/web/cie/parades/-/parada/487
490,486,el Vivero de Jesus (486),,38.927605,1.444652,1814,https://eivissa.tib.org/web/cie/parades/-/parada/486
491,481,Fusteria (481),,38.927044,1.429812,70,https://eivissa.tib.org/web/cie/parades/-/parada/481
494,482,Marí Mayans (482),,38.928722,1.429745,70,https://eivissa.tib.org/web/cie/parades/-/parada/482
495,558,Can Cifre (558),,38.904697,1.402093,1679,https://eivissa.tib.org/web/cie/parades/-/parada/558
496,559,Can Fita (559),,38.909374,1.402248,1619,https://eivissa.tib.org/web/cie/parades/-/parada/559
497,556,Ca na Perica (556),,38.904514,1.395505,1723,https://eivissa.tib.org/web/cie/parades/-/parada/556
498,557,"Riu Minyo, 26 (557)",,38.904804,1.398542,1980,https://eivissa.tib.org/web/cie/parades/-/parada/557
499,554,Club de Campo (554),,38.902664,1.388487,1803,https://eivissa.tib.org/web/cie/parades/-/parada/554
500,555,Bar sa Carroca (555),,38.90397,1.392348,1699,https://eivissa.tib.org/web/cie/parades/-/parada/555
501,552,Can Noguera (552),,38.89989,1.382705,1586,https://eivissa.tib.org/web/cie/parades/-/parada/552
502,553,es Torrent (553),,38.90165,1.385601,1604,https://eivissa.tib.org/web/cie/parades/-/parada/553
503,563,CS can Misses (563),,38.915817,1.417561,12340,https://eivissa.tib.org/web/cie/parades/-/parada/563
504,562,pou de cas Mut (562),,38.91028,1.407687,1976,https://eivissa.tib.org/web/cie/parades/-/parada/562
505,561,Can Pereira (561),,38.911533,1.406347,1635,https://eivissa.tib.org/web/cie/parades/-/parada/561
506,560,Bar Isidro (560),,38.911045,1.403309,2187,https://eivissa.tib.org/web/cie/parades/-/parada/560
507,573,urb. Vista Alegre (573),,38.893345,1.283124,2130,https://eivissa.tib.org/web/cie/parades/-/parada/573
508,572,H. Tarida Playa (572),,38.937824,1.238571,61,https://eivissa.tib.org/web/cie/parades/-/parada/572
509,571,s'Espartar (571),,38.931786,1.258251,1831,https://eivissa.tib.org/web/cie/parades/-/parada/571
510,6008,Can Sanç (6008),,39.04139,1.433626,1611,https://eivissa.tib.org/web/cie/parades/-/parada/6008
511,6009,Can Reial (2) (6009),,39.028126,1.430121,2095,https://eivissa.tib.org/web/cie/parades/-/parada/6009
512,6010,Ca na Poua (6010),,38.96306,1.445866,1743,https://eivissa.tib.org/web/cie/parades/-/parada/6010
513,518,sa Gravada (518),,38.955727,1.502823,2104,https://eivissa.tib.org/web/cie/parades/-/parada/518
515,519,pont de sa Vinya (519),,38.952095,1.494093,1975,https://eivissa.tib.org/web/cie/parades/-/parada/519
516,6012,Centre Cultural Jesús (6012),,38.93181,1.447563,2185,https://eivissa.tib.org/web/cie/parades/-/parada/6012
517,512,Can Bassetes (512),,38.977615,1.514861,1630,https://eivissa.tib.org/web/cie/parades/-/parada/512
518,6013,Bartomeu Rosselló 28-32 (6013),,38.910583,1.431999,12340,https://eivissa.tib.org/web/cie/parades/-/parada/6013
519,513,urb. Valverde (513),,38.96872,1.512506,2160,https://eivissa.tib.org/web/cie/parades/-/parada/513
520,514,encreuament Cala Llonga (514),,38.957382,1.511705,1601,https://eivissa.tib.org/web/cie/parades/-/parada/514
521,515,Bar Madison (515),,38.95507,1.51774,1599,https://eivissa.tib.org/web/cie/parades/-/parada/515
522,524,Ca Nostra (524),,38.93665,1.453058,1752,https://eivissa.tib.org/web/cie/parades/-/parada/524
525,526,Can Pa (526),,38.916183,1.227621,69,https://eivissa.tib.org/web/cie/parades/-/parada/526
526,6003,Can Roig (6003),,39.012726,1.427506,2088,https://eivissa.tib.org/web/cie/parades/-/parada/6003
528,6004,Can Casa Llarga - Santa Eulària (6004),,39.021378,1.428265,2127,https://eivissa.tib.org/web/cie/parades/-/parada/6004
529,520,Can Porxo (520),,38.94949,1.488784,1783,https://eivissa.tib.org/web/cie/parades/-/parada/520
530,6005,Can Reial (6005),,39.02617,1.429555,1938,https://eivissa.tib.org/web/cie/parades/-/parada/6005
531,521,Roca Llisa (521),,38.944088,1.488466,2138,https://eivissa.tib.org/web/cie/parades/-/parada/521
532,6006,CEIP Balansat (6006),,39.04934,1.435874,1982,https://eivissa.tib.org/web/cie/parades/-/parada/6006
533,522,can Fornet (522),,38.943253,1.462432,1924,https://eivissa.tib.org/web/cie/parades/-/parada/522
534,6007,CEIP Balansat (6007),,39.04995,1.435885,1925,https://eivissa.tib.org/web/cie/parades/-/parada/6007
535,523,es Pí (523),,38.940372,1.457455,1631,https://eivissa.tib.org/web/cie/parades/-/parada/523
543,541,Can Muson (541),,38.972576,1.387234,1603,https://eivissa.tib.org/web/cie/parades/-/parada/541
544,540,Can Agusti (540),,38.976284,1.382041,1683,https://eivissa.tib.org/web/cie/parades/-/parada/540
545,543,s'Hort Nou 1 (543),,38.978626,1.414918,1722,https://eivissa.tib.org/web/cie/parades/-/parada/543
546,542,Cuatre Cantons (542),,38.963554,1.396505,1828,https://eivissa.tib.org/web/cie/parades/-/parada/542
547,537,Can Casa Llarga (537),,39.013046,1.343346,1680,https://eivissa.tib.org/web/cie/parades/-/parada/537
548,536,Can Ferrer (536),,39.030296,1.334739,1944,https://eivissa.tib.org/web/cie/parades/-/parada/536
549,539,Bassa Roja (539),,38.98394,1.370052,1748,https://eivissa.tib.org/web/cie/parades/-/parada/539
550,538,Can Tixedo (538),,38.99335,1.361908,1956,https://eivissa.tib.org/web/cie/parades/-/parada/538
551,610,Can Caus (610),,38.986565,1.437403,1934,https://eivissa.tib.org/web/cie/parades/-/parada/610
552,611,Can Pau (611),,38.980186,1.440829,2152,https://eivissa.tib.org/web/cie/parades/-/parada/611
553,608,Cas Barbé (608),,38.991947,1.433437,1719,https://eivissa.tib.org/web/cie/parades/-/parada/608
555,612,Can Magdalè (612),,38.96999,1.445504,1874,https://eivissa.tib.org/web/cie/parades/-/parada/612
556,613,Can Clavos (613),,38.957623,1.445712,1790,https://eivissa.tib.org/web/cie/parades/-/parada/613
558,619,Cafeteria es Port (619),,39.076588,1.440835,1700,https://eivissa.tib.org/web/cie/parades/-/parada/619
563,627,Can Pau (627),,38.980278,1.440829,2041,https://eivissa.tib.org/web/cie/parades/-/parada/627
564,626,sa Farinera (626),,38.96876,1.44609,1715,https://eivissa.tib.org/web/cie/parades/-/parada/626
565,625,Ca na Poua (625),,38.963062,1.446089,2153,https://eivissa.tib.org/web/cie/parades/-/parada/625
566,631,Santa Gertrudis (631),,38.997215,1.430697,1653,https://eivissa.tib.org/web/cie/parades/-/parada/631
567,630,Cas Barbé (630),,38.99214,1.433486,2081,https://eivissa.tib.org/web/cie/parades/-/parada/630
569,628,Can Caus (628),,38.986973,1.437108,1985,https://eivissa.tib.org/web/cie/parades/-/parada/628
572,633,Can Xoroiana (633),,39.008045,1.408818,1948,https://eivissa.tib.org/web/cie/parades/-/parada/633
574,639,Sant Mateu (639),,39.039078,1.383032,2181,https://eivissa.tib.org/web/cie/parades/-/parada/639
580,585,Museu d'Art Contemporani (585),,38.90864,1.435991,12371,https://eivissa.tib.org/web/cie/parades/-/parada/585
581,586,sa Carrossa (586),,38.907906,1.437723,12371,https://eivissa.tib.org/web/cie/parades/-/parada/586
582,587,Ajuntament (587),,38.90725,1.437663,12371,https://eivissa.tib.org/web/cie/parades/-/parada/587
584,590,H. Helios (590),,38.965775,1.297193,1795,https://eivissa.tib.org/web/cie/parades/-/parada/590
585,591,Bar Voramar (591),,38.966324,1.294723,2031,https://eivissa.tib.org/web/cie/parades/-/parada/591
586,593,H. Riviera (593),,38.96727,1.285678,2184,https://eivissa.tib.org/web/cie/parades/-/parada/593
587,592,H. Pinet (592),,38.966896,1.292219,2010,https://eivissa.tib.org/web/cie/parades/-/parada/592
589,597,Pacha (597),,38.91821,1.44236,1825,https://eivissa.tib.org/web/cie/parades/-/parada/597
591,601,Sant Miquel (601),,39.055088,1.437418,2118,https://eivissa.tib.org/web/cie/parades/-/parada/601
592,603,Can Mariano de sa Cova (603),,39.03191,1.431281,1772,https://eivissa.tib.org/web/cie/parades/-/parada/603
593,602,Can Sanç (602),,39.040802,1.433657,1972,https://eivissa.tib.org/web/cie/parades/-/parada/602
594,605,Can Casa Llarga - S.Eulàlia (605),,39.021397,1.428477,1842,https://eivissa.tib.org/web/cie/parades/-/parada/605
595,604,Can Reial (604),,39.02626,1.429773,1634,https://eivissa.tib.org/web/cie/parades/-/parada/604
596,607,Santa Gertrudis (607),,38.998474,1.430249,2026,https://eivissa.tib.org/web/cie/parades/-/parada/607
597,606,Can Roig (606),,39.013363,1.427568,1694,https://eivissa.tib.org/web/cie/parades/-/parada/606
598,5020,encreuament Jesús (5020),,38.92667,1.441335,1577,https://eivissa.tib.org/web/cie/parades/-/parada/5020
599,5012,Can Mosson (5012),,38.984413,1.493806,1818,https://eivissa.tib.org/web/cie/parades/-/parada/5012
600,5010,Pedra Blava (5010),,38.9789,1.477265,1607,https://eivissa.tib.org/web/cie/parades/-/parada/5010
601,5006,Can Xiquet Pou (5006),,38.9621,1.451999,1929,https://eivissa.tib.org/web/cie/parades/-/parada/5006
602,5007,Can Beia (5007),,38.971497,1.459442,2070,https://eivissa.tib.org/web/cie/parades/-/parada/5007
603,5053,Rest. Es Faralló (5053),,38.990578,1.544904,1978,https://eivissa.tib.org/web/cie/parades/-/parada/5053
604,5052,Can Guasch (5052),,38.986923,1.527145,1781,https://eivissa.tib.org/web/cie/parades/-/parada/5052
605,5049,Las Dalias (5049),,39.02859,1.557917,1642,https://eivissa.tib.org/web/cie/parades/-/parada/5049
607,5047,Can Vinyes (5047),,39.01137,1.550741,1589,https://eivissa.tib.org/web/cie/parades/-/parada/5047
608,5041,Las Dalias (5041),,39.028202,1.558118,2090,https://eivissa.tib.org/web/cie/parades/-/parada/5041
612,5039,Can Vinyes (5039),,39.011356,1.550822,1590,https://eivissa.tib.org/web/cie/parades/-/parada/5039
613,5035,Can Guasch (5035),,38.986862,1.527191,2024,https://eivissa.tib.org/web/cie/parades/-/parada/5035
614,5028,Pedra Blava (5028),,38.97905,1.477442,1673,https://eivissa.tib.org/web/cie/parades/-/parada/5028
615,5030,Can Mosson (5030),,38.98422,1.4926,2096,https://eivissa.tib.org/web/cie/parades/-/parada/5030
616,5024,Can Xiquet Pou (5024),,38.961628,1.451534,2123,https://eivissa.tib.org/web/cie/parades/-/parada/5024
617,5025,Can Beia (5025),,38.97102,1.458745,1582,https://eivissa.tib.org/web/cie/parades/-/parada/5025
618,5026,Can Creu (5026),,38.97444,1.463637,2143,https://eivissa.tib.org/web/cie/parades/-/parada/5026
621,5077,Sant Rafel 1 (5077),,38.961475,1.399802,2173,https://eivissa.tib.org/web/cie/parades/-/parada/5077
623,5060,Rest. Es Faralló (5060),,38.99078,1.545057,1920,https://eivissa.tib.org/web/cie/parades/-/parada/5060
624,5114,ses Arcades (5114),,39.066994,1.494596,1741,https://eivissa.tib.org/web/cie/parades/-/parada/5114
626,5102,Can Reiet (5102),,38.98627,1.478894,1796,https://eivissa.tib.org/web/cie/parades/-/parada/5102
627,5103,Es Caliu (5103),,38.99294,1.486117,2112,https://eivissa.tib.org/web/cie/parades/-/parada/5103
628,5090,Sant Rafel 1 (5090),,38.961403,1.399832,1757,https://eivissa.tib.org/web/cie/parades/-/parada/5090
632,1020,Cala Pada (1020),,38.99821,1.559094,1804,https://eivissa.tib.org/web/cie/parades/-/parada/1020
633,1021,Cala Pada (1021),,38.998146,1.558852,1793,https://eivissa.tib.org/web/cie/parades/-/parada/1021
634,1022,Ca n'Andreuet (1022),,38.996803,1.544009,2103,https://eivissa.tib.org/web/cie/parades/-/parada/1022
635,1023,Ca n'Andreuet (1023),,38.996925,1.543965,2085,https://eivissa.tib.org/web/cie/parades/-/parada/1023
636,1008,Ca na Marca (1008),,38.976048,1.441937,2165,https://eivissa.tib.org/web/cie/parades/-/parada/1008
637,1009,Ca na Negreta (1009),,38.946568,1.444708,1626,https://eivissa.tib.org/web/cie/parades/-/parada/1009
638,1010,Ca na Negreta (1010),,38.9468,1.444641,1778,https://eivissa.tib.org/web/cie/parades/-/parada/1010
639,1011,Ca na Pepeta (1011),,39.0331,1.49035,2062,https://eivissa.tib.org/web/cie/parades/-/parada/1011
640,1012,Ca na Pepeta (1012),,39.033363,1.490369,2172,https://eivissa.tib.org/web/cie/parades/-/parada/1012
641,1013,Ca Na Vica (1013),,38.98146,1.483311,1648,https://eivissa.tib.org/web/cie/parades/-/parada/1013
642,1014,Ca Na Vica (1014),,38.98158,1.483276,1624,https://eivissa.tib.org/web/cie/parades/-/parada/1014
644,1002,H. Club Siesta (1002),,38.977833,1.526751,2023,https://eivissa.tib.org/web/cie/parades/-/parada/1002
646,1007,Ca na Marca (1007),,38.97615,1.44198,2189,https://eivissa.tib.org/web/cie/parades/-/parada/1007
656,6016,CETIS (6016),,38.9119,1.424784,12340,https://eivissa.tib.org/web/cie/parades/-/parada/6016
657,286,sa Carrossa (286),,38.907932,1.437579,12371,https://eivissa.tib.org/web/cie/parades/-/parada/286
663,6014,camí des Fil (6014),,39.006676,1.488202,2194,https://eivissa.tib.org/web/cie/parades/-/parada/6014
664,6015,camí des Fil (6015),,39.005135,1.48806,2195,https://eivissa.tib.org/web/cie/parades/-/parada/6015
676,6017,Centre de Salut (6017),,38.96708,1.2906375,2197,https://eivissa.tib.org/web/cie/parades/-/parada/6017
678,6018,"Av. de Sant Agustí, 26 (6018)",,38.965088,1.302761,2198,https://eivissa.tib.org/web/cie/parades/-/parada/6018
679,6019,"Av. de Sant Agustí, 16 (6019)",,38.96569,1.298779,2199,https://eivissa.tib.org/web/cie/parades/-/parada/6019
680,6020,"C. de Jaén, 29 (6020)",,38.96673,1.288572,2207,https://eivissa.tib.org/web/cie/parades/-/parada/6020
681,6021,IES Sant Agustí (6021),Carrer de Jaén,38.950027,1.291226,2206,https://eivissa.tib.org/web/cie/parades/-/parada/6021
682,6022,"Av. Diputat Josep Ribas, 23 (6022)",,38.920574,1.300223,2202,https://eivissa.tib.org/web/cie/parades/-/parada/6022
683,6023,CEIP L'Urgell (6023),Av. Diputat Josep Ribas,38.918934,1.304689,2203,https://eivissa.tib.org/web/cie/parades/-/parada/6023
684,6024,Av. Diputat Josep Ribas (6024),,38.9156,1.310461,2205,https://eivissa.tib.org/web/cie/parades/-/parada/6024
685,7021,IES Sant Agustí (7021),,38.951283,1.29074,2201,https://eivissa.tib.org/web/cie/parades/-/parada/7021
686,7020,"C. de Jaén, 29 (7020)",,38.966824,1.288637,2200,https://eivissa.tib.org/web/cie/parades/-/parada/7020
687,7017,Centre de Salut (7017),Av Sant Agustí 85,38.966965,1.2907661,2208,https://eivissa.tib.org/web/cie/parades/-/parada/7017
688,7019,"Av. de Sant Agustí, 55 (7019)",,38.96578,1.297222,2209,https://eivissa.tib.org/web/cie/parades/-/parada/7019
689,7018,"Av. de Sant Agustí, 25 (7018)",,38.964985,1.3021,2210,https://eivissa.tib.org/web/cie/parades/-/parada/7018
690,7022,"Av. Diputat Josep Ribas, 23 (7022)",,38.920612,1.300265,2211,https://eivissa.tib.org/web/cie/parades/-/parada/7022
691,7023,CEIP L'Urgell (7023),,38.91898,1.304727,2213,https://eivissa.tib.org/web/cie/parades/-/parada/7023
692,7024,Av. Diputat Josep Ribas (7024),,38.915653,1.31052,2212,https://eivissa.tib.org/web/cie/parades/-/parada/7024
702,240,Can Agustí (240),,38.976334,1.382181,2215,https://eivissa.tib.org/web/cie/parades/-/parada/240
712,8001,Estació de Sant Antoni (8001),,38.98139,1.306801,12217,https://eivissa.tib.org/web/cie/parades/-/parada/8001
713,8002,Policia Municipal (8002),,38.978405,1.316333,12218,https://eivissa.tib.org/web/cie/parades/-/parada/8002
714,8003,ses Païsses (8003),,38.976955,1.323258,12219,https://eivissa.tib.org/web/cie/parades/-/parada/8003
715,8004,Can Guillemó (8004),,38.97481,1.332832,12220,https://eivissa.tib.org/web/cie/parades/-/parada/8004
716,8005,"s'Olivera, Can Tumas  (8005)",,38.973347,1.340463,12221,https://eivissa.tib.org/web/cie/parades/-/parada/8005
717,8006,"sa Casilla, Sant Antoni (8006)",,38.97145,1.349374,12222,https://eivissa.tib.org/web/cie/parades/-/parada/8006
718,8007,Cooperativa Hostelera (8007),,38.967655,1.367733,12223,https://eivissa.tib.org/web/cie/parades/-/parada/8007
719,8008,Can Begot (8008),,38.965767,1.374881,12224,https://eivissa.tib.org/web/cie/parades/-/parada/8008
720,8009,Can Parentona (8009),,38.96435,1.384445,12225,https://eivissa.tib.org/web/cie/parades/-/parada/8009
721,8010,Sant Rafel (8010),,38.96166,1.39575,12226,https://eivissa.tib.org/web/cie/parades/-/parada/8010
722,8011,Privilege (8011),,38.95734,1.402736,12227,https://eivissa.tib.org/web/cie/parades/-/parada/8011
723,8012,Can Pep Xico (8012),,38.950394,1.407668,12228,https://eivissa.tib.org/web/cie/parades/-/parada/8012
1748,6077,Sant Carles (6077),,39.03309,1.56491,12656,https://eivissa.tib.org/web/cie/parades/-/parada/6077
724,8013,Amnesia (8013),,38.94817,1.408639,12229,https://eivissa.tib.org/web/cie/parades/-/parada/8013
725,8014,Porcelanosa (8014),,38.94351,1.411343,12230,https://eivissa.tib.org/web/cie/parades/-/parada/8014
726,8015,sa Coma (8015),,38.934822,1.41652,12231,https://eivissa.tib.org/web/cie/parades/-/parada/8015
727,8016,Can Negre (8016),,38.927116,1.421298,12232,https://eivissa.tib.org/web/cie/parades/-/parada/8016
728,8017,IES sa Blanca Dona (8017),,38.92081,1.425079,12233,https://eivissa.tib.org/web/cie/parades/-/parada/8017
729,8018,Recinte Firal (8018),,38.91679,1.427355,12234,https://eivissa.tib.org/web/cie/parades/-/parada/8018
1754,6078,Santa Eulària (6078),,38.985573,1.532744,12658,https://eivissa.tib.org/web/cie/parades/-/parada/6078
733,9018,Recinte Firal (9018),,38.918507,1.426722,12238,https://eivissa.tib.org/web/cie/parades/-/parada/9018
734,9017,IES sa Blanca Dona (9017),,38.921825,1.424704,12239,https://eivissa.tib.org/web/cie/parades/-/parada/9017
735,9016,Can Negre (9016),,38.927834,1.421123,12240,https://eivissa.tib.org/web/cie/parades/-/parada/9016
736,9015,sa Coma (9015),,38.935013,1.416773,12241,https://eivissa.tib.org/web/cie/parades/-/parada/9015
737,9014,Porcelanosa (9014),,38.944187,1.411381,12242,https://eivissa.tib.org/web/cie/parades/-/parada/9014
738,9013,Amnesia (9013),,38.947006,1.409773,12243,https://eivissa.tib.org/web/cie/parades/-/parada/9013
739,9012,Bombers (9012),,38.95209,1.407386,12244,https://eivissa.tib.org/web/cie/parades/-/parada/9012
740,9011,Privilege (9011),,38.957584,1.402911,12227,https://eivissa.tib.org/web/cie/parades/-/parada/9011
741,9010,Sant Rafel (9010),,38.96206,1.395331,12246,https://eivissa.tib.org/web/cie/parades/-/parada/9010
742,9009,Can Parentona (9009),,38.964695,1.384277,12247,https://eivissa.tib.org/web/cie/parades/-/parada/9009
743,9008,Can Begot (9008),,38.96607,1.374977,12248,https://eivissa.tib.org/web/cie/parades/-/parada/9008
744,9007,Cooperativa Hostelera (9007),,38.967957,1.367665,12249,https://eivissa.tib.org/web/cie/parades/-/parada/9007
745,9006,"sa Casilla, Sant Antoni (9006)",,38.97166,1.349121,12250,https://eivissa.tib.org/web/cie/parades/-/parada/9006
746,9005,"s'Olivera, can Tomàs (9005)",,38.97358,1.340127,12251,https://eivissa.tib.org/web/cie/parades/-/parada/9005
747,9004,Can Guillemó (9004),,38.975452,1.331233,12252,https://eivissa.tib.org/web/cie/parades/-/parada/9004
748,9003,ses Païsses (9003),,38.977142,1.32313,12253,https://eivissa.tib.org/web/cie/parades/-/parada/9003
749,9002,Policia Municipal (9002),,38.978554,1.316231,12254,https://eivissa.tib.org/web/cie/parades/-/parada/9002
756,8028,Santa Eulària (8028),,38.985985,1.533527,12261,https://eivissa.tib.org/web/cie/parades/-/parada/8028
770,6027,Aparcament Cas Dominguets (6027),,38.917,1.42863,12272,https://eivissa.tib.org/web/cie/parades/-/parada/6027
771,6028,Aparcament des Gorg (6028),,38.91749,1.4352875,12273,https://eivissa.tib.org/web/cie/parades/-/parada/6028
772,6029,s'Olivera - zona comercial (6029),,38.92182,1.434231,70,https://eivissa.tib.org/web/cie/parades/-/parada/6029
773,6030,s'Olivera - zona escolar (6030),,38.92362,1.434303,70,https://eivissa.tib.org/web/cie/parades/-/parada/6030
777,6032,sa Blanca Dona (6032),,38.92158,1.426154,12277,https://eivissa.tib.org/web/cie/parades/-/parada/6032
1803,6080,"Ignasi Wallis, 16 (6080)",,38.910282,1.43156,12340,https://eivissa.tib.org/web/cie/parades/-/parada/6080
780,6035,Raspallar (escolar) (6035),,38.92335,1.429611,12280,https://eivissa.tib.org/web/cie/parades/-/parada/6035
1805,6082,AV Cala de Bou (6082),,38.96842,1.273444,35,https://eivissa.tib.org/web/cie/parades/-/parada/6082
781,6036,Port (escolar) (6036),,38.91107,1.43451,12281,https://eivissa.tib.org/web/cie/parades/-/parada/6036
1809,6084,encreuament Cala d’Hort (6084),,38.883507,1.233537,59,https://eivissa.tib.org/web/cie/parades/-/parada/6084
805,8044,"Av. de Sant Agustí, 16 (8044)",,38.965576,1.299185,12303,https://eivissa.tib.org/web/cie/parades/-/parada/8044
806,9044,"Av. de Sant Agustí, 55 (9044)",,38.965744,1.296954,12304,https://eivissa.tib.org/web/cie/parades/-/parada/9044
807,8045,Sant Josep (8045),,38.92169,1.293262,12305,https://eivissa.tib.org/web/cie/parades/-/parada/8045
808,9045,Sant Josep (9045),,38.921844,1.29272,12306,https://eivissa.tib.org/web/cie/parades/-/parada/9045
809,8046,Sant Jordi (8046),,38.89144,1.397096,12307,https://eivissa.tib.org/web/cie/parades/-/parada/8046
815,6038,encreuament Cala Tarida (6038),,38.92203,1.2720515,12311,https://eivissa.tib.org/web/cie/parades/-/parada/6038
816,6039,Can Pou (6039),,38.903973,1.2338351,12312,https://eivissa.tib.org/web/cie/parades/-/parada/6039
817,6040,Vedella poble (6040),,38.91153,1.222334,69,https://eivissa.tib.org/web/cie/parades/-/parada/6040
818,6041,Can Bernat Xico (6041),,38.913055,1.2422252,12314,https://eivissa.tib.org/web/cie/parades/-/parada/6041
827,6045,Can Roques Caraveres (6045),,38.905388,1.285163,12320,https://eivissa.tib.org/web/cie/parades/-/parada/6045
828,7045,Can Roques Caraveres (7045),,38.905468,1.285299,12322,https://eivissa.tib.org/web/cie/parades/-/parada/7045
829,6046,Can Mestre (6046),,38.890575,1.279252,12321,https://eivissa.tib.org/web/cie/parades/-/parada/6046
830,7046,Can Mestre (7046),,38.89025,1.279199,12323,https://eivissa.tib.org/web/cie/parades/-/parada/7046
835,7047,Es Cucó (rotonda) (7047),,38.956554,1.27217,76,https://eivissa.tib.org/web/cie/parades/-/parada/7047
850,6050,Policia Nacional (6050),"Av. de la Pau, s/n",38.90854,1.42155,12340,https://eivissa.tib.org/web/cie/parades/-/parada/6050
851,7050,Policia Nacional (7050),"Av. de la Pau, s/n",38.908524,1.421848,12340,https://eivissa.tib.org/web/cie/parades/-/parada/7050
856,6051,Hospital Can Misses (6051),,38.914673,1.42091,12340,https://eivissa.tib.org/web/cie/parades/-/parada/6051
857,7051,Hospital Can Misses (7051),,38.914906,1.419781,12340,https://eivissa.tib.org/web/cie/parades/-/parada/7051
868,7038,Es Cap de Sa Tanca (7038),Ctra. Cala Tarida (Cruïlla Ctra. Cala Vedella),38.921806,1.271573,12339,https://eivissa.tib.org/web/cie/parades/-/parada/7038
870,6055,Aparcament des Gorg (6055),"Ctra Ibiza-portinatx, 2344",38.917046,1.436099,12341,https://eivissa.tib.org/web/cie/parades/-/parada/6055
871,9049,Ca na Negreta (9049),,38.946568,1.444708,12342,https://eivissa.tib.org/web/cie/parades/-/parada/9049
872,8048,Sant Joan (8048),,39.077312,1.512538,12343,https://eivissa.tib.org/web/cie/parades/-/parada/8048
873,8049,Ca na Negreta (8049),,38.9468,1.444641,12344,https://eivissa.tib.org/web/cie/parades/-/parada/8049
887,6056,Comandància de Marina (6056),,38.916527,1.438202,12340,https://eivissa.tib.org/web/cie/parades/-/parada/6056
910,6059,Teatre Pereira (6059),,38.90905,1.435053,12349,https://eivissa.tib.org/web/cie/parades/-/parada/6059
911,6060,"C. de Pere Sala, 3 (6060)",,38.90891,1.434663,12350,https://eivissa.tib.org/web/cie/parades/-/parada/6060
912,6061,Multicines (6061),,38.911793,1.421614,12351,https://eivissa.tib.org/web/cie/parades/-/parada/6061
913,6062,Centre de Salut (6062),,38.902534,1.412756,12352,https://eivissa.tib.org/web/cie/parades/-/parada/6062
914,6063,cementeri Vell (6063),,38.90337,1.417975,12353,https://eivissa.tib.org/web/cie/parades/-/parada/6063
919,6065,Residència Can Raspalls (6065),,38.900368,1.401261,12355,https://eivissa.tib.org/web/cie/parades/-/parada/6065
920,7065,Residència Can Raspalls (7065),,38.899998,1.401297,12356,https://eivissa.tib.org/web/cie/parades/-/parada/7065
921,6066,Can Raspalls (6066),,38.89684,1.401825,12357,https://eivissa.tib.org/web/cie/parades/-/parada/6066
922,7066,Can Raspalls (7066),,38.89661,1.40152,12358,https://eivissa.tib.org/web/cie/parades/-/parada/7066
925,6067,C. de les Margalides (6067),,38.97545,1.527668,12359,https://eivissa.tib.org/web/cie/parades/-/parada/6067
926,6068,Plaça de Suïssa (6068),,38.987667,1.528145,12360,https://eivissa.tib.org/web/cie/parades/-/parada/6068
927,6069,Escoleta Blancanieves (6069),,38.987972,1.524559,12361,https://eivissa.tib.org/web/cie/parades/-/parada/6069
928,6070,Policia Municipal (6070),,38.985626,1.528346,12362,https://eivissa.tib.org/web/cie/parades/-/parada/6070
930,7071,Es Mercat (7071),,38.985397,1.532598,12364,https://eivissa.tib.org/web/cie/parades/-/parada/7071
931,6073,H. Tres Torres (6073),,38.986942,1.539404,12365,https://eivissa.tib.org/web/cie/parades/-/parada/6073
932,6072,Centre de Salut (6072),,38.987724,1.537444,12366,https://eivissa.tib.org/web/cie/parades/-/parada/6072
933,6074,Mercadona (6074),,38.98927,1.543935,12367,https://eivissa.tib.org/web/cie/parades/-/parada/6074
934,6075,Poliesportiu (6075),,38.993855,1.537629,12368,https://eivissa.tib.org/web/cie/parades/-/parada/6075
935,6076,Punt Groc (6076),,38.995636,1.534155,12369,https://eivissa.tib.org/web/cie/parades/-/parada/6076
936,7070,Policia Municipal (7070),,38.98605,1.528346,12370,https://eivissa.tib.org/web/cie/parades/-/parada/7070

